{"type": "FeatureCollection", "features": [{"type":"Feature","geometry":{"type":"Point","coordinates":[111.591696,16.460606]},"properties":{"cartodb_id":1,"name":"Antelope Reef","latitude":16.46060581,"longitude":111.5916963,"status":"Rock","name_china":"Lingyang Jiao, 羚羊礁 ","name_taiwan":"Lingyang Reef, 羚羊礁","name_vietnam":"Đá Hải Sâm","name_philippines":"","name_malaysia":"","date_of_occupation":null,"occupier":"china","hyperlink":"https://amti.csis.org/antelope-reef","picture":""}},{"type":"Feature","geometry":{"type":"Point","coordinates":[112.5,16.03]},"properties":{"cartodb_id":2,"name":"Bombay Reef","latitude":16.03,"longitude":112.5,"status":"Rock","name_china":"Langhua Jiao,  浪花礁","name_taiwan":"Pengbo Reef, 蓬勃礁","name_vietnam":"Đá Bông Bay","name_philippines":"","name_malaysia":"","date_of_occupation":null,"occupier":"china","hyperlink":"https://amti.csis.org/bombay-reef","picture":""}},{"type":"Feature","geometry":{"type":"Point","coordinates":[111.741288,16.463383]},"properties":{"cartodb_id":3,"name":"Drummond Island","latitude":16.46338277,"longitude":111.7412885,"status":"Rock","name_china":"Jinqing Dao, 晋卿岛","name_taiwan":"Jinqing Island, 晉卿島","name_vietnam":"Đảo Duy Mộng","name_philippines":"","name_malaysia":"","date_of_occupation":1974,"occupier":"china","hyperlink":"https://amti.csis.org/drummond-island","picture":""}},{"type":"Feature","geometry":{"type":"Point","coordinates":[111.711914,16.451058]},"properties":{"cartodb_id":4,"name":"Duncan Island","latitude":16.45105833,"longitude":111.7119139,"status":"Rock","name_china":"Chenhang Dao, 琛航岛","name_taiwan":"Chenhang Island, 琛航島","name_vietnam":"Đảo Quang Hòa","name_philippines":"","name_malaysia":"","date_of_occupation":1974,"occupier":"china","hyperlink":"https://amti.csis.org/duncan-island","picture":""}},{"type":"Feature","geometry":{"type":"Point","coordinates":[112.735,16.665]},"properties":{"cartodb_id":5,"name":"Lincoln Island","latitude":16.665,"longitude":112.735,"status":"Rock","name_china":"Dong Dao, 东岛","name_taiwan":"Hewu Island, 和五島","name_vietnam":"Đảo Linh Côn","name_philippines":"","name_malaysia":"","date_of_occupation":null,"occupier":"china","hyperlink":"https://amti.csis.org/lincoln-island","picture":""}},{"type":"Feature","geometry":{"type":"Point","coordinates":[112.324833,16.955056]},"properties":{"cartodb_id":6,"name":"Middle Island","latitude":16.95505637,"longitude":112.3248333,"status":"Rock","name_china":"Zhong Dao, 中岛","name_taiwan":"Zhong Island, 中島","name_vietnam":"Đảo Trung","name_philippines":"","name_malaysia":"","date_of_occupation":null,"occupier":"china","hyperlink":"https://amti.csis.org/middle-island","picture":""}},{"type":"Feature","geometry":{"type":"Point","coordinates":[111.507904,16.448018]},"properties":{"cartodb_id":7,"name":"Money Island","latitude":16.44801802,"longitude":111.5079043,"status":"Rock","name_china":"Jinyin Dao, 金银岛","name_taiwan":"Jinyin Island, 金銀島","name_vietnam":"Đảo Quang Ảnh","name_philippines":"","name_malaysia":"","date_of_occupation":null,"occupier":"china","hyperlink":"https://amti.csis.org/money-island","picture":""}},{"type":"Feature","geometry":{"type":"Point","coordinates":[111.5,17.08]},"properties":{"cartodb_id":8,"name":"North Reef","latitude":17.08,"longitude":111.5,"status":"Rock","name_china":"Bei Jiao, 北礁","name_taiwan":"Bei Reef, 北礁","name_vietnam":"Đá Bắc","name_philippines":"","name_malaysia":"","date_of_occupation":null,"occupier":"china","hyperlink":"https://amti.csis.org/north-reef","picture":""}},{"type":"Feature","geometry":{"type":"Point","coordinates":[112.30934,16.963814]},"properties":{"cartodb_id":9,"name":"North Island","latitude":16.96381438,"longitude":112.3093396,"status":"Rock","name_china":"Bei Dao, 北岛","name_taiwan":"Bei Island, 北島","name_vietnam":"Đảo Bắc","name_philippines":"","name_malaysia":"","date_of_occupation":null,"occupier":"china","hyperlink":"https://amti.csis.org/north-island","picture":""}},{"type":"Feature","geometry":{"type":"Point","coordinates":[111.704444,16.579444]},"properties":{"cartodb_id":10,"name":"Observation Bank","latitude":16.579444,"longitude":111.704444,"status":"Rock","name_china":"Yin Yu, 银屿","name_taiwan":"Senping Tan, 森屏灘","name_vietnam":"Bãi Xà Cừ","name_philippines":"","name_malaysia":"","date_of_occupation":null,"occupier":"china","hyperlink":"https://amti.csis.org/observation-bank","picture":""}},{"type":"Feature","geometry":{"type":"Point","coordinates":[111.700818,16.45226]},"properties":{"cartodb_id":11,"name":"Palm Island","latitude":16.45225955,"longitude":111.700818,"status":"Rock","name_china":"Guangjin Dao, 广金岛","name_taiwan":"Guangjin Island, 廣金島","name_vietnam":"Đảo Quang Hòa Tây","name_philippines":"","name_malaysia":"","date_of_occupation":null,"occupier":"china","hyperlink":"https://amti.csis.org/palm-island","picture":""}},{"type":"Feature","geometry":{"type":"Point","coordinates":[111.607304,16.534676]},"properties":{"cartodb_id":12,"name":"Pattle Island","latitude":16.53467632,"longitude":111.6073036,"status":"Rock","name_china":"Shanhu Dao, 珊瑚岛","name_taiwan":"Shanhu Island, 珊瑚島","name_vietnam":"Đảo Hoàng Sa","name_philippines":"","name_malaysia":"","date_of_occupation":null,"occupier":"china","hyperlink":"https://amti.csis.org/pattle-island","picture":""}},{"type":"Feature","geometry":{"type":"Point","coordinates":[111.673612,16.575]},"properties":{"cartodb_id":13,"name":"Quanfu Island","latitude":16.575,"longitude":111.673612,"status":"Rock","name_china":"Quanfu Dao, 全富岛","name_taiwan":"Quanfu Island, 全富島","name_vietnam":"Đảo Ốc Hoa","name_philippines":"","name_malaysia":"","date_of_occupation":null,"occupier":"china","hyperlink":"https://amti.csis.org/quanfu-island","picture":""}},{"type":"Feature","geometry":{"type":"Point","coordinates":[111.585611,16.505797]},"properties":{"cartodb_id":14,"name":"Robert Island","latitude":16.50579651,"longitude":111.5856106,"status":"Rock","name_china":"Ganquan Dao,  甘泉岛","name_taiwan":"Ganquan Island, 甘泉島","name_vietnam":"Đảo Hữu Nhật","name_philippines":"","name_malaysia":"","date_of_occupation":null,"occupier":"china","hyperlink":"https://amti.csis.org/robert-island","picture":""}},{"type":"Feature","geometry":{"type":"Point","coordinates":[112.347222,16.844444]},"properties":{"cartodb_id":15,"name":"Rocky Island","latitude":16.84444444,"longitude":112.3472222,"status":"Rock","name_china":"Shi Dao, 石岛","name_taiwan":"Shi Island, 石島 ","name_vietnam":"Đảo Đá","name_philippines":"","name_malaysia":"","date_of_occupation":null,"occupier":"china","hyperlink":"https://amti.csis.org/rocky-island","picture":""}},{"type":"Feature","geometry":{"type":"Point","coordinates":[112.334051,16.947071]},"properties":{"cartodb_id":16,"name":"South Island","latitude":16.94707095,"longitude":112.3340508,"status":"Rock","name_china":"Nan Dao, 南岛","name_taiwan":"Nan Island, 南島","name_vietnam":"Đảo Nam","name_philippines":"","name_malaysia":"","date_of_occupation":null,"occupier":"china","hyperlink":"https://amti.csis.org/south-island","picture":""}},{"type":"Feature","geometry":{"type":"Point","coordinates":[112.345701,16.929652]},"properties":{"cartodb_id":17,"name":"South Sand","latitude":16.92965203,"longitude":112.3457006,"status":"Rock","name_china":"Nan Shazhou, 南沙洲","name_taiwan":"Nan Sand Bar, 南沙洲","name_vietnam":"Cồn Cát Nam","name_philippines":"","name_malaysia":"","date_of_occupation":null,"occupier":"china","hyperlink":"https://amti.csis.org/south-sand","picture":""}},{"type":"Feature","geometry":{"type":"Point","coordinates":[112.271452,16.979905]},"properties":{"cartodb_id":18,"name":"Tree Island","latitude":16.97990546,"longitude":112.2714525,"status":"Rock","name_china":"Zhaoshu Dao, 赵述岛","name_taiwan":"Zhaoshu Island, 趙述島","name_vietnam":"Đảo Cây","name_philippines":"","name_malaysia":"","date_of_occupation":null,"occupier":"china","hyperlink":"https://amti.csis.org/tree-island","picture":""}},{"type":"Feature","geometry":{"type":"Point","coordinates":[111.2,15.785]},"properties":{"cartodb_id":19,"name":"Triton Island","latitude":15.785,"longitude":111.2,"status":"Rock","name_china":"Zhongjian Dao, 中建岛","name_taiwan":"Zhongjian Island, 中建島","name_vietnam":"Đảo Tri Tôn","name_philippines":"","name_malaysia":"","date_of_occupation":null,"occupier":"china","hyperlink":"https://amti.csis.org/triton-island","picture":""}},{"type":"Feature","geometry":{"type":"Point","coordinates":[112.211631,16.977854]},"properties":{"cartodb_id":20,"name":"West Sand","latitude":16.97785417,"longitude":112.2116306,"status":"Rock","name_china":"Xi Shazhou, 西沙洲","name_taiwan":"Xi Sand Bar, 西沙洲","name_vietnam":"Cồn Cát Tây","name_philippines":"","name_malaysia":"","date_of_occupation":null,"occupier":"china","hyperlink":"https://amti.csis.org/west-sand","picture":""}},{"type":"Feature","geometry":{"type":"Point","coordinates":[112.3375,16.834167]},"properties":{"cartodb_id":21,"name":"Woody Island","latitude":16.83416667,"longitude":112.3375,"status":"Rock","name_china":"Yongxing Dao, 永兴岛","name_taiwan":"Yongxing Island, 永興島","name_vietnam":"Đảo Phú Lâm","name_philippines":"","name_malaysia":"","date_of_occupation":1955,"occupier":"china","hyperlink":"https://amti.csis.org/woody-island","picture":""}},{"type":"Feature","geometry":{"type":"Point","coordinates":[111.686389,16.566667]},"properties":{"cartodb_id":22,"name":"Yagong Island","latitude":16.566667,"longitude":111.686389,"status":"Rock","name_china":"Yagong Dao, 鸭公岛","name_taiwan":"Yagong Island, 鸭公島","name_vietnam":"Đảo Ba Ba","name_philippines":"","name_malaysia":"","date_of_occupation":null,"occupier":"china","hyperlink":"https://amti.csis.org/yagong-island","picture":""}},{"type":"Feature","geometry":{"type":"Point","coordinates":[112.885614,9.545281]},"properties":{"cartodb_id":23,"name":"Fiery Cross Reef","latitude":9.545280556,"longitude":112.8856139,"status":"Rock","name_china":"Yongshu Jiao, 永暑礁","name_taiwan":"Yongshu Reef, 永暑礁","name_vietnam":"Đá Chữ Thập","name_philippines":"Kagitingan Reef","name_malaysia":"","date_of_occupation":1988,"occupier":"china","hyperlink":"https://amti.csis.org/fiery-cross-reef","picture":""}},{"type":"Feature","geometry":{"type":"Point","coordinates":[114.223078,10.206961]},"properties":{"cartodb_id":24,"name":"Gaven Reefs","latitude":10.20696111,"longitude":114.2230778,"status":"Rock","name_china":"Nanxun Jiao, 南薰礁","name_taiwan":"Nanxun Reef, 南薰礁","name_vietnam":"Đá Ga Ven","name_philippines":"Burgos Reefs","name_malaysia":"","date_of_occupation":1988,"occupier":"china","hyperlink":"https://amti.csis.org/gaven-reefs","picture":""}},{"type":"Feature","geometry":{"type":"Point","coordinates":[114.287164,9.715111]},"properties":{"cartodb_id":25,"name":"Johnson Reef","latitude":9.715111111,"longitude":114.2871639,"status":"Rock","name_china":"Chiguo Jiao,赤瓜礁","name_taiwan":"Chiguo Reef, 赤瓜礁","name_vietnam":"Đá Gạc Ma","name_philippines":"Mabini Reef","name_malaysia":"","date_of_occupation":1988,"occupier":"china","hyperlink":"https://amti.csis.org/johnson-reef","picture":""}},{"type":"Feature","geometry":{"type":"Point","coordinates":[114.497178,9.908742]},"properties":{"cartodb_id":26,"name":"Hughes Reef","latitude":9.908741667,"longitude":114.4971778,"status":"Low-tide elevation","name_china":"Dongmen Jiao, 东门礁","name_taiwan":"Dongmen Reef, 東門礁","name_vietnam":"Đá Tư Nghĩa","name_philippines":"McKennan Reef","name_malaysia":"","date_of_occupation":1988,"occupier":"china","hyperlink":"https://amti.csis.org/hughes-reef","picture":""}},{"type":"Feature","geometry":{"type":"Point","coordinates":[115.52,9.91]},"properties":{"cartodb_id":27,"name":"Mischief Reef","latitude":9.91,"longitude":115.52,"status":"Low-tide elevation","name_china":"Meiji Jiao, 美济礁","name_taiwan":"Meiji Reef, 美濟礁","name_vietnam":"Đá Vành Khăn","name_philippines":"Panganiban Reef","name_malaysia":"","date_of_occupation":1995,"occupier":"china","hyperlink":"https://amti.csis.org/mischief-reef","picture":""}},{"type":"Feature","geometry":{"type":"Point","coordinates":[114.07,10.92]},"properties":{"cartodb_id":28,"name":"Subi Reef","latitude":10.92,"longitude":114.07,"status":"Low-tide elevation","name_china":"Zhubi Jiao, 渚碧礁","name_taiwan":"Zhubi Reef, 渚碧礁","name_vietnam":"Đá Su Bi","name_philippines":"Zamora Reef","name_malaysia":"","date_of_occupation":1988,"occupier":"china","hyperlink":"https://amti.csis.org/subi-reef","picture":""}},{"type":"Feature","geometry":{"type":"Point","coordinates":[112.830336,8.865238]},"properties":{"cartodb_id":29,"name":"Cuarteron Reef","latitude":8.865237649,"longitude":112.8303358,"status":"Rock","name_china":"Huayang Jiao, 华阳礁","name_taiwan":"Huayang Reef, 華陽礁","name_vietnam":"Bãi Châu Viên","name_philippines":"Calderon Reef","name_malaysia":"Terumbu Calderon","date_of_occupation":1988,"occupier":"china","hyperlink":"https://amti.csis.org/cuarteron-reef","picture":""}}]}