{"type": "FeatureCollection", "features": [{"type":"Feature","geometry":{"type":"Point","coordinates":[115.238789,8.358492]},"properties":{"cartodb_id":1,"name":"Commodore Reef","latitude":8.358491667,"longitude":115.2387889,"status":"Rock","name_china":"Siling Jiao, 司令礁","name_taiwan":"Siling Jiao, 司令礁","name_vietnam":"Đá Công Đo","name_philippines":"Rizal Reef","name_malaysia":"Terumbu Laksamana","date_of_occupation":1980,"occupier":"philippines","hyperlink":"https://amti.csis.org/commodore-reef","picture":""}},{"type":"Feature","geometry":{"type":"Point","coordinates":[115.822,10.816]},"properties":{"cartodb_id":2,"name":"Flat Island","latitude":10.816,"longitude":115.822,"status":"Rock","name_china":"Feixin Dao, 费信岛","name_taiwan":"Feixin Dao, 費信島","name_vietnam":"Đảo Bình Nguyên","name_philippines":"Patag Island","name_malaysia":"","date_of_occupation":1977,"occupier":"philippines","hyperlink":"https://amti.csis.org/flat-island","picture":""}},{"type":"Feature","geometry":{"type":"Point","coordinates":[114.3525,10.728611]},"properties":{"cartodb_id":3,"name":"Loaita Cay/Loaita Nan","latitude":10.728611,"longitude":114.3525,"status":"Rock","name_china":"Nanyao Shazhou, 南钥沙洲","name_taiwan":"","name_vietnam":"Đảo Loại Ta Tây","name_philippines":"Melchora Aquino Cay/Panata Island","name_malaysia":"","date_of_occupation":null,"occupier":"philippines","hyperlink":"https://amti.csis.org/loaita-cay/loaita-nan","picture":""}},{"type":"Feature","geometry":{"type":"Point","coordinates":[114.424167,10.667778]},"properties":{"cartodb_id":4,"name":"Loaita Island","latitude":10.667778,"longitude":114.424167,"status":"Rock","name_china":"Nanyao Dao, 南钥岛","name_taiwan":"Nanyao Dao, 南鑰島","name_vietnam":"Đảo Loại Ta","name_philippines":"Kota Island","name_malaysia":"","date_of_occupation":1971,"occupier":"philippines","hyperlink":"https://amti.csis.org/loaita-island","picture":""}},{"type":"Feature","geometry":{"type":"Point","coordinates":[115.803,10.732]},"properties":{"cartodb_id":5,"name":"Nanshan Island","latitude":10.732,"longitude":115.803,"status":"Rock","name_china":"Mahuan Dao, 马欢岛","name_taiwan":"Mahuan Dao, 馬歡島","name_vietnam":"Đảo Vĩnh Viễn","name_philippines":"Lawak Island","name_malaysia":"","date_of_occupation":1970,"occupier":"philippines","hyperlink":"https://amti.csis.org/nanshan-island","picture":""}},{"type":"Feature","geometry":{"type":"Point","coordinates":[114.355,11.453]},"properties":{"cartodb_id":6,"name":"Northeast Cay","latitude":11.453,"longitude":114.355,"status":"Rock","name_china":"Beizi Dao, 北子島","name_taiwan":"Beizi Jiao, 北子礁","name_vietnam":"Đảo Song Tử Đông","name_philippines":"Parola Island","name_malaysia":"","date_of_occupation":1971,"occupier":"philippines","hyperlink":"https://amti.csis.org/northeast-cay","picture":""}},{"type":"Feature","geometry":{"type":"Point","coordinates":[115.858065,9.79086]},"properties":{"cartodb_id":7,"name":"Second Thomas Shoal","latitude":9.790860447,"longitude":115.8580651,"status":"Submerged","name_china":"Ren’ai Jiao, 仁爱礁","name_taiwan":"Ren’ai Ansha, 仁愛暗沙","name_vietnam":"Bãi Cỏ Mây","name_philippines":"Ayungin Shoal","name_malaysia":"","date_of_occupation":1999,"occupier":"philippines","hyperlink":"https://amti.csis.org/second-thomas-shoal","picture":""}},{"type":"Feature","geometry":{"type":"Point","coordinates":[114.285,11.053]},"properties":{"cartodb_id":8,"name":"Thitu Island","latitude":11.053,"longitude":114.285,"status":"Rock","name_china":"Zhongye Dao, 中业岛","name_taiwan":"Zhongye Dao, 中業島","name_vietnam":"Đảo Thị Tứ","name_philippines":"Pag-asa Island","name_malaysia":"","date_of_occupation":1971,"occupier":"philippines","hyperlink":"https://amti.csis.org/thitu-island","picture":""}},{"type":"Feature","geometry":{"type":"Point","coordinates":[115.024116,11.081441]},"properties":{"cartodb_id":9,"name":"West York Island","latitude":11.08144136,"longitude":115.0241159,"status":"Rock","name_china":"Xiyue Dao, 西月岛","name_taiwan":"Xiyue Dao, 西月島","name_vietnam":"Đảo Bến Lạc","name_philippines":"Likas Island","name_malaysia":"","date_of_occupation":1971,"occupier":"philippines","hyperlink":"https://amti.csis.org/west-york-island","picture":""}}]}