{"type": "FeatureCollection", "features": [{"type":"Feature","geometry":{"type":"Point","coordinates":[112.345833,16.923333]},"properties":{"cartodb_id":28,"name":"New West Sand","latitude":16.923333,"longitude":112.345833,"status":"Rock","name_china":"Xixin Shazhou, 西新沙洲","name_taiwan":"","name_vietnam":"","name_philippines":"","name_malaysia":"","date_of_occupation":"","occupier":"unoccupied","hyperlink":"","picture":""}},{"type":"Feature","geometry":{"type":"Point","coordinates":[112.276944,3.968889]},"properties":{"cartodb_id":1,"name":"James Shoal","latitude":3.968889,"longitude":112.276944,"status":"Submerged","name_china":"Zengmu Ansha, 曾母暗沙","name_taiwan":"Zengmu Ansha, 曾母暗沙","name_vietnam":"","name_philippines":"","name_malaysia":"Beting Serupai","date_of_occupation":"","occupier":"unoccupied","hyperlink":"","picture":""}},{"type":"Feature","geometry":{"type":"Point","coordinates":[112.525,5.9]},"properties":{"cartodb_id":2,"name":"Aitken Reef","latitude":5.9,"longitude":112.525,"status":"Submerged","name_china":"Yijing Jiao,  义净礁","name_taiwan":"","name_vietnam":"","name_philippines":"","name_malaysia":"Terumbu Datuk Landih","date_of_occupation":"","occupier":"unoccupied","hyperlink":"","picture":""}},{"type":"Feature","geometry":{"type":"Point","coordinates":[112.5375,5.804167]},"properties":{"cartodb_id":3,"name":"Buck Reef","latitude":5.804167,"longitude":112.5375,"status":"Submerged","name_china":"Faxian Ansha,  法显暗沙","name_taiwan":"","name_vietnam":"","name_philippines":"","name_malaysia":"Terumbu Linggir","date_of_occupation":"","occupier":"unoccupied","hyperlink":"","picture":""}},{"type":"Feature","geometry":{"type":"Point","coordinates":[112.938889,5.036667]},"properties":{"cartodb_id":4,"name":"Comus Shoal","latitude":5.036667,"longitude":112.938889,"status":"Submerged","name_china":"Huanle Ansha,  欢乐暗沙","name_taiwan":"","name_vietnam":"","name_philippines":"","name_malaysia":"Beting Merpati","date_of_occupation":"","occupier":"unoccupied","hyperlink":"","picture":""}},{"type":"Feature","geometry":{"type":"Point","coordinates":[112.579167,5.077778]},"properties":{"cartodb_id":5,"name":"Connell Reef","latitude":5.077778,"longitude":112.579167,"status":"Submerged","name_china":"Yinbo Ansha, 隐波暗沙","name_taiwan":"","name_vietnam":"","name_philippines":"","name_malaysia":"Terumbu Dato Talip","date_of_occupation":"","occupier":"unoccupied","hyperlink":"","picture":""}},{"type":"Feature","geometry":{"type":"Point","coordinates":[112.528612,5.955]},"properties":{"cartodb_id":6,"name":"Friendship Shoal","latitude":5.955,"longitude":112.528612,"status":"Submerged","name_china":"Mengyi Ansha, 盟谊暗沙","name_taiwan":"Mengyi Ansha, 盟誼暗沙","name_vietnam":"","name_philippines":"","name_malaysia":"Beting Rentap","date_of_occupation":"","occupier":"unoccupied","hyperlink":"","picture":""}},{"type":"Feature","geometry":{"type":"Point","coordinates":[112.445833,5.783333]},"properties":{"cartodb_id":7,"name":"Hardie Reef","latitude":5.783333,"longitude":112.445833,"status":"Submerged","name_china":"Haikang Ansha, 海康暗沙 ","name_taiwan":"","name_vietnam":"","name_philippines":" ","name_malaysia":"","date_of_occupation":"","occupier":"unoccupied","hyperlink":"","picture":""}},{"type":"Feature","geometry":{"type":"Point","coordinates":[116.166667,11.416667]},"properties":{"cartodb_id":82,"name":"Nares Bank","latitude":11.416667,"longitude":116.166667,"status":"Submerged","name_china":"Dayuan Tan, 大渊滩","name_taiwan":"","name_vietnam":"Bãi Tổ Muỗi","name_philippines":"","name_malaysia":"","date_of_occupation":"","occupier":"unoccupied","hyperlink":"","picture":""}},{"type":"Feature","geometry":{"type":"Point","coordinates":[112.625,5.370833]},"properties":{"cartodb_id":8,"name":"Hayes Reef","latitude":5.370833,"longitude":112.625,"status":"Submerged","name_china":"Nanping Jiao, 南屏礁 ","name_taiwan":"Nanping Jiao, 南屏礁","name_vietnam":"","name_philippines":"","name_malaysia":"Terumbu Lang Ngingdang","date_of_occupation":"","occupier":"unoccupied","hyperlink":"","picture":""}},{"type":"Feature","geometry":{"type":"Point","coordinates":[112.604167,4.970833]},"properties":{"cartodb_id":9,"name":"Herald Reef","latitude":4.970833,"longitude":112.604167,"status":"Submerged","name_china":"Haining Jiao,  海宁礁 ","name_taiwan":"Haining Jiao, 海寧礁","name_vietnam":"","name_philippines":"","name_malaysia":"Terumbu Saji","date_of_occupation":"","occupier":"unoccupied","hyperlink":"","picture":""}},{"type":"Feature","geometry":{"type":"Point","coordinates":[112.643056,5.019167]},"properties":{"cartodb_id":10,"name":"Luconia Breakers","latitude":5.019167,"longitude":112.643056,"status":"Low-tide elevation","name_china":"Qiongtai Jiao,  琼台礁","name_taiwan":"","name_vietnam":"","name_philippines":"","name_malaysia":"Hampasan Bantin","date_of_occupation":"","occupier":"unoccupied","hyperlink":"","picture":""}},{"type":"Feature","geometry":{"type":"Point","coordinates":[112.360556,5.627222]},"properties":{"cartodb_id":11,"name":"Moody Reef","latitude":5.627222,"longitude":112.360556,"status":"Submerged","name_china":"Kangxi Ansha, 康西暗沙 ","name_taiwan":"","name_vietnam":"","name_philippines":"","name_malaysia":"Terumbu Permaisuri","date_of_occupation":"","occupier":"unoccupied","hyperlink":"","picture":""}},{"type":"Feature","geometry":{"type":"Point","coordinates":[112.664444,5.05]},"properties":{"cartodb_id":12,"name":"Richmond Reef","latitude":5.05,"longitude":112.664444,"status":"Submerged","name_china":"Tanmen Jiao,  潭门礁","name_taiwan":"","name_vietnam":"","name_philippines":"","name_malaysia":"Terumbu Balingian","date_of_occupation":"","occupier":"unoccupied","hyperlink":"","picture":""}},{"type":"Feature","geometry":{"type":"Point","coordinates":[112.583333,5.5]},"properties":{"cartodb_id":13,"name":"Seahorse Breakers","latitude":5.5,"longitude":112.583333,"status":"Submerged","name_china":"Nan'an Jiao, 南安礁 ","name_taiwan":"Nan'an Jiao, 南安礁","name_vietnam":"","name_philippines":"","name_malaysia":"Hempasan Dang Ajar","date_of_occupation":"","occupier":"unoccupied","hyperlink":"","picture":""}},{"type":"Feature","geometry":{"type":"Point","coordinates":[112.5,4.816667]},"properties":{"cartodb_id":14,"name":"Sierra Blanca Reef","latitude":4.816667,"longitude":112.5,"status":"Submerged","name_china":"Chengping Jiao,  澄平礁","name_taiwan":"Chengping Jiao, 澄平礁","name_vietnam":"","name_philippines":"","name_malaysia":"","date_of_occupation":"","occupier":"unoccupied","hyperlink":"","picture":""}},{"type":"Feature","geometry":{"type":"Point","coordinates":[112.479167,5.024444]},"properties":{"cartodb_id":15,"name":"Stigant Reef","latitude":5.024444,"longitude":112.479167,"status":"Submerged","name_china":"Hai'an Jiao, 海安礁 ","name_taiwan":"Hai'an Jiao, 海安礁","name_vietnam":"","name_philippines":"","name_malaysia":"Terumbu Sahap","date_of_occupation":"","occupier":"unoccupied","hyperlink":"","picture":""}},{"type":"Feature","geometry":{"type":"Point","coordinates":[112.475,5.475]},"properties":{"cartodb_id":16,"name":"Tripp Reef","latitude":5.475,"longitude":112.475,"status":"Submerged","name_china":"Bei'an Jiao, 北安礁","name_taiwan":"","name_vietnam":"","name_philippines":"","name_malaysia":"Terumbu Lintong","date_of_occupation":"","occupier":"unoccupied","hyperlink":"","picture":""}},{"type":"Feature","geometry":{"type":"Point","coordinates":[114.333333,15.833333]},"properties":{"cartodb_id":17,"name":"Macclesfield Bank","latitude":15.833333,"longitude":114.333333,"status":"Submerged","name_china":"Zhongsha QunDao,  中沙群岛 ","name_taiwan":"","name_vietnam":"Bãi Ngầm Mắc Lec Phiên","name_philippines":"","name_malaysia":"","date_of_occupation":"","occupier":"unoccupied","hyperlink":"","picture":""}},{"type":"Feature","geometry":{"type":"Point","coordinates":[112.45,16.333333]},"properties":{"cartodb_id":18,"name":"Bremen Bank","latitude":16.333333,"longitude":112.45,"status":"Submerged","name_china":"Binmei Tan, 滨湄滩 ","name_taiwan":"Binmei Tan, 濱湄灘","name_vietnam":"Bãi Châu Nhai","name_philippines":"","name_malaysia":"","date_of_occupation":"","occupier":"unoccupied","hyperlink":"","picture":""}},{"type":"Feature","geometry":{"type":"Point","coordinates":[111.748156,16.545042]},"properties":{"cartodb_id":19,"name":"Crescent Island","latitude":16.54504239,"longitude":111.7481563,"status":"Rock","name_china":"Shi Yu, 石屿","name_taiwan":"","name_vietnam":"Đảo Lưỡi Liềm","name_philippines":"","name_malaysia":"","date_of_occupation":"","occupier":"unoccupied","hyperlink":"","picture":""}},{"type":"Feature","geometry":{"type":"Point","coordinates":[112.889722,16.816111]},"properties":{"cartodb_id":20,"name":"Dido Bank","latitude":16.816111,"longitude":112.889722,"status":"Submerged","name_china":"Xidu Tan,  西渡滩","name_taiwan":"Xidu Tan, 西渡灘","name_vietnam":"Bãi Gò Nổi","name_philippines":"","name_malaysia":"","date_of_occupation":"","occupier":"unoccupied","hyperlink":"","picture":""}},{"type":"Feature","geometry":{"type":"Point","coordinates":[111.683333,16.233333]},"properties":{"cartodb_id":21,"name":"Discovery Reef","latitude":16.233333,"longitude":111.683333,"status":"Rock","name_china":"Huaguang Jiao, 华光礁","name_taiwan":"Huaguang Jiao, 華光礁","name_vietnam":"Đá Lồi","name_philippines":"","name_malaysia":"","date_of_occupation":"","occupier":"unoccupied","hyperlink":"","picture":""}},{"type":"Feature","geometry":{"type":"Point","coordinates":[112.233333,15.733333]},"properties":{"cartodb_id":22,"name":"Herald Bank","latitude":15.733333,"longitude":112.233333,"status":"Submerged","name_china":"Songtao Tan, 嵩焘滩","name_taiwan":"","name_vietnam":"Bãi Ốc Tai Voi","name_philippines":"","name_malaysia":"","date_of_occupation":"","occupier":"unoccupied","hyperlink":"","picture":""}},{"type":"Feature","geometry":{"type":"Point","coordinates":[112.23333,16.766667]},"properties":{"cartodb_id":23,"name":"Iltis Bank","latitude":16.766667,"longitude":112.23333,"status":"Submerged","name_china":"Yinshuo Tan,  银铄滩","name_taiwan":"Yinli Tan, 銀礫灘","name_vietnam":"Bãi Bình Sơn","name_philippines":"","name_malaysia":"","date_of_occupation":"","occupier":"unoccupied","hyperlink":"","picture":""}},{"type":"Feature","geometry":{"type":"Point","coordinates":[112.633333,16.416667]},"properties":{"cartodb_id":24,"name":"Jehangire Reefs","latitude":16.416667,"longitude":112.633333,"status":"Submerged","name_china":"Zhanhan Tan, 湛涵滩","name_taiwan":"Zhanhan Tan, 湛涵灘","name_vietnam":"Bãi Quảng Nghĩa","name_philippines":"","name_malaysia":"","date_of_occupation":"","occupier":"unoccupied","hyperlink":"","picture":""}},{"type":"Feature","geometry":{"type":"Point","coordinates":[111.655114,16.452258]},"properties":{"cartodb_id":25,"name":"Kuangzai Shoal","latitude":16.452258,"longitude":111.655114,"status":"Submerged","name_china":"Kuangzhai Shazhou, 筐仔沙洲 ","name_taiwan":"","name_vietnam":"","name_philippines":"","name_malaysia":"","date_of_occupation":"","occupier":"unoccupied","hyperlink":"","picture":""}},{"type":"Feature","geometry":{"type":"Point","coordinates":[112.343471,16.933912]},"properties":{"cartodb_id":26,"name":"Middle Sand","latitude":16.93391232,"longitude":112.3434708,"status":"Rock","name_china":"Zhong Shazhou, 中沙洲","name_taiwan":"Zhong Shazhou, 中沙洲","name_vietnam":"Cồn Cát Trung","name_philippines":"","name_malaysia":"","date_of_occupation":"","occupier":"unoccupied","hyperlink":"","picture":""}},{"type":"Feature","geometry":{"type":"Point","coordinates":[112.516667,16.5]},"properties":{"cartodb_id":27,"name":"Neptuna Banks","latitude":16.5,"longitude":112.516667,"status":"Submerged","name_china":"Beibianlang, 北边廊","name_taiwan":"","name_vietnam":"Bãi Thuỷ Tề","name_philippines":"","name_malaysia":"","date_of_occupation":"","occupier":"unoccupied","hyperlink":"","picture":""}},{"type":"Feature","geometry":{"type":"Point","coordinates":[112.341684,16.937841]},"properties":{"cartodb_id":29,"name":"North Sand","latitude":16.93784059,"longitude":112.3416842,"status":"Rock","name_china":"Bei Shazhou, 北沙洲","name_taiwan":"Bei Shazhou, 北沙洲","name_vietnam":"Cồn Cát Bắc","name_philippines":"","name_malaysia":"","date_of_occupation":"","occupier":"unoccupied","hyperlink":"","picture":""}},{"type":"Feature","geometry":{"type":"Point","coordinates":[111.762123,16.055881]},"properties":{"cartodb_id":30,"name":"Passu Keah","latitude":16.05588143,"longitude":111.7621233,"status":"Rock","name_china":"Panshi Yu, 盘石屿","name_taiwan":"Panshi Yu, 盤石嶼","name_vietnam":"Đảo Bạch Quy","name_philippines":"","name_malaysia":"","date_of_occupation":"","occupier":"unoccupied","hyperlink":"","picture":""}},{"type":"Feature","geometry":{"type":"Point","coordinates":[112.642362,16.576876]},"properties":{"cartodb_id":31,"name":"Pyramid Rock","latitude":16.576876,"longitude":112.642362,"status":"Rock","name_china":"Gaojian Shi, 高尖石","name_taiwan":"Gaojian Shi, 高尖石","name_vietnam":"Hòn Tháp","name_philippines":"","name_malaysia":"","date_of_occupation":"","occupier":"unoccupied","hyperlink":"","picture":""}},{"type":"Feature","geometry":{"type":"Point","coordinates":[112,16.34]},"properties":{"cartodb_id":32,"name":"Vuladdore Reef","latitude":16.34,"longitude":112,"status":"Rock","name_china":"Yuduo Jiao, 玉琢礁","name_taiwan":"Yuduo Jiao, 玉琢礁","name_vietnam":"Đá Chim Én","name_philippines":"","name_malaysia":"","date_of_occupation":"","occupier":"unoccupied","hyperlink":"","picture":""}},{"type":"Feature","geometry":{"type":"Point","coordinates":[111.715,16.545833]},"properties":{"cartodb_id":33,"name":"Xianshe Island","latitude":16.545833,"longitude":111.715,"status":"Submerged","name_china":"Xianshe Yu, 咸舍屿","name_taiwan":"","name_vietnam":"Đá Trà Tây","name_philippines":"","name_malaysia":"","date_of_occupation":"","occupier":"unoccupied","hyperlink":"","picture":""}},{"type":"Feature","geometry":{"type":"Point","coordinates":[117.775512,15.144706]},"properties":{"cartodb_id":34,"name":"Scarborough Shoal","latitude":15.14470629,"longitude":117.7755124,"status":"Rock","name_china":"Huangyan Dao, 黄岩岛","name_taiwan":"Huangyan Dao 黃岩島","name_vietnam":"","name_philippines":"Bajo de Masinloc/Panatag Shoal","name_malaysia":"","date_of_occupation":"","occupier":"unoccupied","hyperlink":"https://amti.csis.org/scarborough-shoal","picture":""}},{"type":"Feature","geometry":{"type":"Point","coordinates":[115.448,9.383]},"properties":{"cartodb_id":35,"name":"Alicia Annie Reef","latitude":9.383,"longitude":115.448,"status":"Rock","name_china":"Xian’e Jiao, 仙娥礁","name_taiwan":"Xian'e Jiao, 仙娥礁","name_vietnam":"Đá Suối Ngọc","name_philippines":"Arellano Reef","name_malaysia":"","date_of_occupation":"","occupier":"unoccupied","hyperlink":"","picture":""}},{"type":"Feature","geometry":{"type":"Point","coordinates":[116.25,10.833333]},"properties":{"cartodb_id":36,"name":"Amy Douglas Bank","latitude":10.833333,"longitude":116.25,"status":"Low-tide elevation","name_china":"Antang Tan, 安塘滩","name_taiwan":"","name_vietnam":"","name_philippines":"Mahiwagang Diwata","name_malaysia":"","date_of_occupation":"","occupier":"unoccupied","hyperlink":"","picture":""}},{"type":"Feature","geometry":{"type":"Point","coordinates":[116.166667,10.716667]},"properties":{"cartodb_id":37,"name":"Baker Reef","latitude":10.716667,"longitude":116.166667,"status":"Low-tide elevation","name_china":"Gongzhen Jiao, 巩珍礁","name_taiwan":"","name_vietnam":"Đá Ba Cờ","name_philippines":"","name_malaysia":"","date_of_occupation":"","occupier":"unoccupied","hyperlink":"","picture":""}},{"type":"Feature","geometry":{"type":"Point","coordinates":[114.5325,9.889722]},"properties":{"cartodb_id":38,"name":"Bamford Reef","latitude":9.889722,"longitude":114.5325,"status":"Low-tide elevation","name_china":"Longxia Jiao, 龙虾礁","name_taiwan":"","name_vietnam":"Đá Bia","name_philippines":"","name_malaysia":"","date_of_occupation":"","occupier":"unoccupied","hyperlink":"","picture":""}},{"type":"Feature","geometry":{"type":"Point","coordinates":[116.925,9.455]},"properties":{"cartodb_id":39,"name":"Bombay Shoal","latitude":9.455,"longitude":116.925,"status":"Low-tide elevation","name_china":"Pengbo Ansha,  蓬勃暗沙","name_taiwan":"Pengbo Ansha, 蓬勃暗沙","name_vietnam":"Bãi Cái Mép","name_philippines":"Abad Santos Shoal","name_malaysia":"","date_of_occupation":"","occupier":"unoccupied","hyperlink":"","picture":""}},{"type":"Feature","geometry":{"type":"Point","coordinates":[116.166667,9.6]},"properties":{"cartodb_id":40,"name":"Boxall Reef","latitude":9.6,"longitude":116.166667,"status":"Low-tide elevation","name_china":"Niuchelun Jiao, 牛车轮礁","name_taiwan":"","name_vietnam":"Đá Bốc Xan","name_philippines":"Rajah Soliman Reef","name_malaysia":"","date_of_occupation":"","occupier":"unoccupied","hyperlink":"","picture":""}},{"type":"Feature","geometry":{"type":"Point","coordinates":[117.45,10.65]},"properties":{"cartodb_id":41,"name":"Brown Bank","latitude":10.65,"longitude":117.45,"status":"Submerged","name_china":"Zong Tan,  棕滩","name_taiwan":"Zong Tan, 棕灘","name_vietnam":"Bãi Cạn Nâu","name_philippines":"Kayumanggi Bank","name_malaysia":"","date_of_occupation":"","occupier":"unoccupied","hyperlink":"","picture":""}},{"type":"Feature","geometry":{"type":"Point","coordinates":[117.35,10.1]},"properties":{"cartodb_id":42,"name":"Carnatic Shoal","latitude":10.1,"longitude":117.35,"status":"Submerged","name_china":"Hongshi Ansha,  红石暗沙","name_taiwan":"Hongshi Ansha, 紅石暗沙","name_vietnam":"Bãi Cạn Rạch Lấp","name_philippines":"Sikatuna Shoal","name_malaysia":"","date_of_occupation":"","occupier":"unoccupied","hyperlink":"","picture":""}},{"type":"Feature","geometry":{"type":"Point","coordinates":[113.79,7.625]},"properties":{"cartodb_id":44,"name":"Dallas Reef","latitude":7.625,"longitude":113.79,"status":"Low-tide elevation","name_china":"Guangxing Jiao, 光星礁","name_taiwan":"","name_vietnam":"Đá Suối Cát","name_philippines":"","name_malaysia":"Terumbu Laya","date_of_occupation":"","occupier":"unoccupied","hyperlink":"","picture":""}},{"type":"Feature","geometry":{"type":"Point","coordinates":[112.4,9.533333]},"properties":{"cartodb_id":45,"name":"Dhaulle Shoal","latitude":9.533333,"longitude":112.4,"status":"Submerged","name_china":"Xiaoyao Ansha, 逍遥暗沙","name_taiwan":"Xiaoyao Ansha, 逍遙暗沙","name_vietnam":"Bãi ngầm Nguyệt Sương","name_philippines":"","name_malaysia":"","date_of_occupation":"","occupier":"unoccupied","hyperlink":"","picture":""}},{"type":"Feature","geometry":{"type":"Point","coordinates":[115.916667,8.5]},"properties":{"cartodb_id":46,"name":"Director Shoal","latitude":8.5,"longitude":115.916667,"status":"Submerged","name_china":"Zhixiang Jiao, 指向礁","name_taiwan":"Zhixiang Jiao, 指向礁","name_vietnam":"","name_philippines":"Tamban Shoal","name_malaysia":"","date_of_occupation":"","occupier":"unoccupied","hyperlink":"","picture":""}},{"type":"Feature","geometry":{"type":"Point","coordinates":[114.004444,9.998333]},"properties":{"cartodb_id":47,"name":"Discovery Small Reef","latitude":9.998333,"longitude":114.004444,"status":"Low-tide elevation","name_china":"Xiaoxian Jiao, 小现礁","name_taiwan":"Xiaoxian Jiao, 小現礁 ","name_vietnam":"Đá Nhỏ","name_philippines":"Burgos Reef","name_malaysia":"","date_of_occupation":"","occupier":"unoccupied","hyperlink":"","picture":""}},{"type":"Feature","geometry":{"type":"Point","coordinates":[114.394722,9.896667]},"properties":{"cartodb_id":48,"name":"Edmund Reef","latitude":9.896667,"longitude":114.394722,"status":"Low-tide elevation","name_china":"Nanmen Jiao, 南门礁","name_taiwan":"","name_vietnam":"Đá Bình Khê","name_philippines":"","name_malaysia":"","date_of_occupation":"","occupier":"unoccupied","hyperlink":"","picture":""}},{"type":"Feature","geometry":{"type":"Point","coordinates":[114.71496,10.3649]},"properties":{"cartodb_id":49,"name":"Eldad Reef","latitude":10.36490038,"longitude":114.7149604,"status":"Rock","name_china":"Anda Jiao, 安达礁","name_taiwan":"Anda Jiao, 安達礁","name_vietnam":"Đá Én Đất","name_philippines":"Malvar Reef","name_malaysia":"","date_of_occupation":"","occupier":"unoccupied","hyperlink":"","picture":""}},{"type":"Feature","geometry":{"type":"Point","coordinates":[114.589444,9.976667]},"properties":{"cartodb_id":50,"name":"Empire Reef","latitude":9.976667,"longitude":114.589444,"status":"Low-tide elevation","name_china":"Zhuquan Jiao, 主权礁","name_taiwan":"","name_vietnam":"Đá Đức Hòa","name_philippines":"","name_malaysia":"","date_of_occupation":"","occupier":"unoccupied","hyperlink":"","picture":""}},{"type":"Feature","geometry":{"type":"Point","coordinates":[117.633333,10.616667]},"properties":{"cartodb_id":51,"name":"Fairie Queen Shoal","latitude":10.616667,"longitude":117.633333,"status":"Submerged","name_china":"Xianhou Tan,  仙后滩","name_taiwan":"Xianhou Tan, 仙后灘","name_vietnam":"Bãi Ôn Thủy","name_philippines":"Mahiwagang Diwata Shoal","name_malaysia":"","date_of_occupation":"","occupier":"unoccupied","hyperlink":"","picture":""}},{"type":"Feature","geometry":{"type":"Point","coordinates":[115.933333,9.333333]},"properties":{"cartodb_id":52,"name":"First Thomas Shoal","latitude":9.333333,"longitude":115.933333,"status":"Rock","name_china":"Xinyi Jiao,  信义礁","name_taiwan":"Xinyi Ansha, 信義暗沙","name_vietnam":"Bãi Suối Ngà","name_philippines":"Bulig Shoal","name_malaysia":"","date_of_occupation":"","occupier":"unoccupied","hyperlink":"","picture":""}},{"type":"Feature","geometry":{"type":"Point","coordinates":[114.306667,9.879167]},"properties":{"cartodb_id":54,"name":"Gent Reef","latitude":9.879167,"longitude":114.306667,"status":"Low-tide elevation","name_china":"Jiyang Jiao, 吉阳礁","name_taiwan":"","name_vietnam":"Đá Sơn Hà","name_philippines":"","name_malaysia":"","date_of_occupation":"","occupier":"unoccupied","hyperlink":"","picture":""}},{"type":"Feature","geometry":{"type":"Point","coordinates":[116.275,8.9]},"properties":{"cartodb_id":56,"name":"Half Moon Shoal","latitude":8.9,"longitude":116.275,"status":"Rock","name_china":"Banyue Jiao, 半月礁","name_taiwan":"Banyue Ansha, 半月暗沙","name_vietnam":"Bãi Trăng Khuyết","name_philippines":"Hasa-hasa Shoal","name_malaysia":"","date_of_occupation":"","occupier":"unoccupied","hyperlink":"","picture":""}},{"type":"Feature","geometry":{"type":"Point","coordinates":[114.525,9.933333]},"properties":{"cartodb_id":57,"name":"Hallet Reef","latitude":9.933333,"longitude":114.525,"status":"Low-tide elevation","name_china":"Anle Jiao, 安乐礁","name_taiwan":"","name_vietnam":"Đá Bình Sơn","name_philippines":"","name_malaysia":"","date_of_occupation":"","occupier":"unoccupied","hyperlink":"","picture":""}},{"type":"Feature","geometry":{"type":"Point","coordinates":[116.143056,10.122222]},"properties":{"cartodb_id":58,"name":"Hardy Reef","latitude":10.122222,"longitude":116.143056,"status":"Low-tide elevation","name_china":"Banlu Jiao, 半路礁","name_taiwan":"","name_vietnam":"Bán Lộ Tiêu","name_philippines":"Hubo Reef","name_malaysia":"","date_of_occupation":"","occupier":"unoccupied","hyperlink":"","picture":""}},{"type":"Feature","geometry":{"type":"Point","coordinates":[114.4,9.795833]},"properties":{"cartodb_id":59,"name":"Higgens Reef","latitude":9.795833,"longitude":114.4,"status":"Low-tide elevation","name_china":"Quyuan Jiao, 屈原礁","name_taiwan":"","name_vietnam":"Đá Phúc Sĩ","name_philippines":"","name_malaysia":"","date_of_occupation":"","occupier":"unoccupied","hyperlink":"","picture":""}},{"type":"Feature","geometry":{"type":"Point","coordinates":[116.42,10.883333]},"properties":{"cartodb_id":60,"name":"Hirane Shoal","latitude":10.883333,"longitude":116.42,"status":"Submerged","name_china":"Antang Jiao, 安塘礁","name_taiwan":"Antang Dao, 安塘島","name_vietnam":"","name_philippines":"","name_malaysia":"","date_of_occupation":"","occupier":"unoccupied","hyperlink":"","picture":""}},{"type":"Feature","geometry":{"type":"Point","coordinates":[114.565278,9.963889]},"properties":{"cartodb_id":61,"name":"Holiday Reef","latitude":9.963889,"longitude":114.565278,"status":"Low-tide elevation","name_china":"Changxian Jiao, 长线礁","name_taiwan":"","name_vietnam":"Đá Bãi Khung","name_philippines":"","name_malaysia":"","date_of_occupation":"","occupier":"unoccupied","hyperlink":"","picture":""}},{"type":"Feature","geometry":{"type":"Point","coordinates":[116.090556,10.808889]},"properties":{"cartodb_id":62,"name":"Hopkins Reef","latitude":10.808889,"longitude":116.090556,"status":"Low-tide elevation","name_china":"Huoxing Jiao, 火星礁","name_taiwan":"","name_vietnam":"Đá Hợp Kim","name_philippines":"","name_malaysia":"","date_of_occupation":"","occupier":"unoccupied","hyperlink":"","picture":""}},{"type":"Feature","geometry":{"type":"Point","coordinates":[115.366667,10.25]},"properties":{"cartodb_id":63,"name":"Hopps Reef","latitude":10.25,"longitude":115.366667,"status":"Low-tide elevation","name_china":"Lusha Jiao, 禄沙礁","name_taiwan":"","name_vietnam":"Đá Lục Giang","name_philippines":"Diego Silang Reef","name_malaysia":"","date_of_occupation":"","occupier":"unoccupied","hyperlink":"","picture":""}},{"type":"Feature","geometry":{"type":"Point","coordinates":[116.4625,9.175]},"properties":{"cartodb_id":64,"name":"Investigator Northeast Shoal","latitude":9.175,"longitude":116.4625,"status":"Low-tide elevation","name_china":"Haikou Jiao, 海口礁","name_taiwan":"Haikou Ansha, 海口暗沙","name_vietnam":"Bãi Phù Mỹ","name_philippines":"Dalagang Bukid Shoal","name_malaysia":"","date_of_occupation":"","occupier":"unoccupied","hyperlink":"","picture":""}},{"type":"Feature","geometry":{"type":"Point","coordinates":[116.166667,10.616667]},"properties":{"cartodb_id":65,"name":"Iroquois Reef","latitude":10.616667,"longitude":116.166667,"status":"Low-tide elevation","name_china":"Houteng Jiao, 鲎藤礁","name_taiwan":"","name_vietnam":"Đá Khúc Giác","name_philippines":"Del Pilar Reef","name_malaysia":"","date_of_occupation":"","occupier":"unoccupied","hyperlink":"","picture":""}},{"type":"Feature","geometry":{"type":"Point","coordinates":[114.916667,10.866667]},"properties":{"cartodb_id":66,"name":"Irving Reef","latitude":10.866667,"longitude":114.916667,"status":"Low-tide elevation","name_china":"Huo’ai Jiao, 火艾礁","name_taiwan":"","name_vietnam":"Đá Cá Nhám","name_philippines":"Balagtas Reef","name_malaysia":"","date_of_occupation":"","occupier":"unoccupied","hyperlink":"","picture":""}},{"type":"Feature","geometry":{"type":"Point","coordinates":[115.75,10.5]},"properties":{"cartodb_id":67,"name":"Jackson Atoll","latitude":10.5,"longitude":115.75,"status":"Low-tide elevation","name_china":"Wufang Jiao,  五方礁","name_taiwan":"","name_vietnam":"Bãi Hải Sâm","name_philippines":"Quirino Atoll","name_malaysia":"","date_of_occupation":"","occupier":"unoccupied","hyperlink":"","picture":""}},{"type":"Feature","geometry":{"type":"Point","coordinates":[111.574722,7.804167]},"properties":{"cartodb_id":68,"name":"Rifleman Bank/Johnson Patch","latitude":7.804167,"longitude":111.574722,"status":"Submerged","name_china":"Changjun Ansha, 常骏暗沙","name_taiwan":"","name_vietnam":"Bãi Vũng Mây","name_philippines":"","name_malaysia":"","date_of_occupation":"","occupier":"unoccupied","hyperlink":"","picture":""}},{"type":"Feature","geometry":{"type":"Point","coordinates":[114.465833,9.830556]},"properties":{"cartodb_id":69,"name":"Jones Reef","latitude":9.830556,"longitude":114.465833,"status":"Low-tide elevation","name_china":"Zhangxi Jiao, 漳溪礁","name_taiwan":"","name_vietnam":"Đá Văn Nguyên","name_philippines":"","name_malaysia":"","date_of_occupation":"","occupier":"unoccupied","hyperlink":"","picture":""}},{"type":"Feature","geometry":{"type":"Point","coordinates":[114.466667,9.903611]},"properties":{"cartodb_id":70,"name":"Kennan Reef","latitude":9.903611,"longitude":114.466667,"status":"Low-tide elevation","name_china":"Ximen Jiao, 西门礁","name_taiwan":"","name_vietnam":"Đá Ken Nan","name_philippines":"Chigua Reef","name_malaysia":"","date_of_occupation":"","occupier":"unoccupied","hyperlink":"","picture":""}},{"type":"Feature","geometry":{"type":"Point","coordinates":[114.533333,10.711111]},"properties":{"cartodb_id":71,"name":"Lankiam Cay","latitude":10.711111,"longitude":114.533333,"status":"Rock","name_china":"Yangxin Shazhou, 杨信沙洲","name_taiwan":"Yangxin Shazhou, 楊信沙洲","name_vietnam":"Đá An Nhơn","name_philippines":"","name_malaysia":"","date_of_occupation":"","occupier":"unoccupied","hyperlink":"","picture":""}},{"type":"Feature","geometry":{"type":"Point","coordinates":[117.466667,11.066667]},"properties":{"cartodb_id":72,"name":"Leslie Bank","latitude":11.066667,"longitude":117.466667,"status":"Submerged","name_china":"Yonghi Tan, 勇士滩","name_taiwan":"","name_vietnam":"Bãi Vĩnh Tuy","name_philippines":"Urduja Bank","name_malaysia":"","date_of_occupation":"","occupier":"unoccupied","hyperlink":"","picture":""}},{"type":"Feature","geometry":{"type":"Point","coordinates":[115.3,10.191667]},"properties":{"cartodb_id":73,"name":"Livock Reef","latitude":10.191667,"longitude":115.3,"status":"Rock","name_china":"Sanjiao Jiao, 三角礁","name_taiwan":"","name_vietnam":"Đá Long Hải","name_philippines":"Jacinto Reef","name_malaysia":"","date_of_occupation":"","occupier":"unoccupied","hyperlink":"","picture":""}},{"type":"Feature","geometry":{"type":"Point","coordinates":[114.327222,10.704167]},"properties":{"cartodb_id":74,"name":"Loaita Southwest Reef/Loaita Nan","latitude":10.704167,"longitude":114.327222,"status":"Low-tide elevation","name_china":"Shuanghuang Shazhou, 双黄沙洲","name_taiwan":"","name_vietnam":"Bãi Loại Ta Nam","name_philippines":"Magbanua Reef","name_malaysia":"","date_of_occupation":"","occupier":"unoccupied","hyperlink":"","picture":""}},{"type":"Feature","geometry":{"type":"Point","coordinates":[113.241667,6.331944]},"properties":{"cartodb_id":75,"name":"Louisa Reef","latitude":6.331944,"longitude":113.241667,"status":"Rock","name_china":"Nantong Jiao, 南通礁","name_taiwan":"Nantong Jiao, 南通礁","name_vietnam":"Đá Louisa","name_philippines":"Terumbu Samarang Barat Kecil","name_malaysia":"","date_of_occupation":"","occupier":"unoccupied","hyperlink":"","picture":""}},{"type":"Feature","geometry":{"type":"Point","coordinates":[117.283333,10.333333]},"properties":{"cartodb_id":76,"name":"Lord Auckland Shoal","latitude":10.333333,"longitude":117.283333,"status":"Submerged","name_china":"Elan Ansha,  莪兰暗沙","name_taiwan":"Elan Ansha, 莪蘭暗沙","name_vietnam":"Bãi Na Khoai","name_philippines":"Lapu-Lapu Shoal","name_malaysia":"","date_of_occupation":"","occupier":"unoccupied","hyperlink":"","picture":""}},{"type":"Feature","geometry":{"type":"Point","coordinates":[114.278889,9.853333]},"properties":{"cartodb_id":77,"name":"Loveless Reef","latitude":9.853333,"longitude":114.278889,"status":"Low-tide elevation","name_china":"Hua Jiao, 华礁","name_taiwan":"","name_vietnam":"Đá Nghĩa Hành","name_philippines":"","name_malaysia":"","date_of_occupation":"","occupier":"unoccupied","hyperlink":"","picture":""}},{"type":"Feature","geometry":{"type":"Point","coordinates":[114.591667,11.35]},"properties":{"cartodb_id":78,"name":"Lys Shoal","latitude":11.35,"longitude":114.591667,"status":"Submerged","name_china":"Lesi Ansha,  乐斯暗沙","name_taiwan":"Lesi Ansha, 樂斯暗沙","name_vietnam":"Bãi Núi Cầu","name_philippines":"Bisugo Shoal","name_malaysia":"","date_of_occupation":"","occupier":"unoccupied","hyperlink":"","picture":""}},{"type":"Feature","geometry":{"type":"Point","coordinates":[113.665278,9.204722]},"properties":{"cartodb_id":79,"name":"Maralie Reef","latitude":9.204722,"longitude":113.665278,"status":"Submerged","name_china":"Shipanzai, 石盘仔","name_taiwan":"","name_vietnam":"Đá Núi Mon","name_philippines":"Dagohoy Reef","name_malaysia":"","date_of_occupation":"","occupier":"unoccupied","hyperlink":"","picture":""}},{"type":"Feature","geometry":{"type":"Point","coordinates":[116.883333,11.933333]},"properties":{"cartodb_id":80,"name":"Marie Louise Bank","latitude":11.9333333,"longitude":116.883333,"status":"Submerged","name_china":"Xiongnan Jiao, 雄南礁","name_taiwan":"","name_vietnam":"Đá Đồng Thạnh","name_philippines":"","name_malaysia":"","date_of_occupation":"","occupier":"unoccupied","hyperlink":"","picture":""}},{"type":"Feature","geometry":{"type":"Point","coordinates":[114.817,11.15]},"properties":{"cartodb_id":81,"name":"Menzies Reef","latitude":11.15,"longitude":114.817,"status":"Low-tide elevation","name_china":"Mengzi Jiao, 蒙自礁","name_taiwan":"","name_vietnam":"Đá An Lão","name_philippines":"Rajah Lakandula Reef","name_malaysia":"","date_of_occupation":"","occupier":"unoccupied","hyperlink":"","picture":""}},{"type":"Feature","geometry":{"type":"Point","coordinates":[114.393056,11.4625]},"properties":{"cartodb_id":83,"name":"North Reef","latitude":11.4625,"longitude":114.393056,"status":"Low-tide elevation","name_china":"Gongshi Jiao, 贡士礁","name_taiwan":"","name_vietnam":"Đá Bắc","name_philippines":"Hilaga Reef","name_malaysia":"","date_of_occupation":"","occupier":"unoccupied","hyperlink":"","picture":""}},{"type":"Feature","geometry":{"type":"Point","coordinates":[116.85,10.8]},"properties":{"cartodb_id":87,"name":"Pennsylvania North Reef","latitude":10.8,"longitude":116.85,"status":"Submerged","name_china":"Yangming Jiao, 阳明礁","name_taiwan":"Yangming Jiao, 陽明礁","name_vietnam":"Đá Gò Già","name_philippines":"","name_malaysia":"","date_of_occupation":"","occupier":"unoccupied","hyperlink":"","picture":""}},{"type":"Feature","geometry":{"type":"Point","coordinates":[116.566667,10.35]},"properties":{"cartodb_id":88,"name":"Pennsylvania South Reef","latitude":10.35,"longitude":116.566667,"status":"Submerged","name_china":"Kongming Jiao,  孔明礁","name_taiwan":"Kongming Jiao, 孔明礁","name_vietnam":"","name_philippines":"Magat Salamat Reef","name_malaysia":"","date_of_occupation":"","occupier":"unoccupied","hyperlink":"","picture":""}},{"type":"Feature","geometry":{"type":"Point","coordinates":[116.9,11.45]},"properties":{"cartodb_id":89,"name":"Reed Bank","latitude":11.45,"longitude":116.9,"status":"Submerged","name_china":"Liyue Tan, 礼乐滩","name_taiwan":"Lile Tan, 禮樂灘","name_vietnam":"Bãi Cỏ Rong","name_philippines":"Recto Bank","name_malaysia":"Permatang Reed","date_of_occupation":"","occupier":"unoccupied","hyperlink":"","picture":""}},{"type":"Feature","geometry":{"type":"Point","coordinates":[114.597222,9.907222]},"properties":{"cartodb_id":90,"name":"Ross Reef","latitude":9.907222,"longitude":114.597222,"status":"Low-tide elevation","name_china":"Ranqing Dongjiao, 染青东礁","name_taiwan":"","name_vietnam":"Đá An Bình","name_philippines":"","name_malaysia":"","date_of_occupation":"","occupier":"unoccupied","hyperlink":"","picture":""}},{"type":"Feature","geometry":{"type":"Point","coordinates":[116.662778,9.044444]},"properties":{"cartodb_id":91,"name":"Royal Captain Shoal","latitude":9.044444,"longitude":116.662778,"status":"Low-tide elevation","name_china":"Jianzhang Jiao,  舰长礁","name_taiwan":"Jianzhang Ansha, 艦長暗沙","name_vietnam":"Bãi Đồi Mồi","name_philippines":"Kanduli Shoal","name_malaysia":"","date_of_occupation":"","occupier":"unoccupied","hyperlink":"","picture":""}},{"type":"Feature","geometry":{"type":"Point","coordinates":[113.579167,6.941667]},"properties":{"cartodb_id":92,"name":"Royal Charlotte Reef","latitude":6.941667,"longitude":113.579167,"status":"Rock","name_china":"Huanglu Jiao 皇路礁","name_taiwan":"Huanglu Jiao, 皇路礁","name_vietnam":"Da Sac Lot","name_philippines":"","name_malaysia":"Terumbu Semarang Barat Besar","date_of_occupation":"","occupier":"unoccupied","hyperlink":"","picture":""}},{"type":"Feature","geometry":{"type":"Point","coordinates":[116.483333,9.75]},"properties":{"cartodb_id":93,"name":"Sabina Shoal","latitude":9.75,"longitude":116.483333,"status":"Low-tide elevation","name_china":"Xianbin Jiao,  仙宾礁","name_taiwan":"Xianbin Ansha, 仙濱暗吵","name_vietnam":"Bãi Sa Bin","name_philippines":"Escoda Shoal","name_malaysia":"","date_of_occupation":"","occupier":"unoccupied","hyperlink":"","picture":""}},{"type":"Feature","geometry":{"type":"Point","coordinates":[114.206131,11.055243]},"properties":{"cartodb_id":94,"name":"Sandy Cay","latitude":11.05524306,"longitude":114.2061308,"status":"Rock","name_china":"Tiexian Jiao, 铁线礁","name_taiwan":"","name_vietnam":"","name_philippines":"","name_malaysia":"","date_of_occupation":"","occupier":"unoccupied","hyperlink":"","picture":""}},{"type":"Feature","geometry":{"type":"Point","coordinates":[117.633333,11.05]},"properties":{"cartodb_id":95,"name":"Sandy Shoal","latitude":11.05,"longitude":117.633333,"status":"Submerged","name_china":"Shenxian Ansha, 神仙暗沙","name_taiwan":"Shenxian Ansha, 神仙暗沙","name_vietnam":"Bãi Hữu Độ","name_philippines":"Mabuhangin Shoal","name_malaysia":"","date_of_occupation":"","occupier":"unoccupied","hyperlink":"","picture":""}},{"type":"Feature","geometry":{"type":"Point","coordinates":[117.783333,10.783333]},"properties":{"cartodb_id":96,"name":"Seahorse Shoal","latitude":10.783333,"longitude":117.783333,"status":"Submerged","name_china":"Haima Tan,  海马滩","name_taiwan":"Haima Tan, 海馬灘","name_vietnam":"Bãi Thạch Sa","name_philippines":"Baybayin Dagat Shoal","name_malaysia":"","date_of_occupation":"","occupier":"unoccupied","hyperlink":"","picture":""}},{"type":"Feature","geometry":{"type":"Point","coordinates":[116.7,10.483333]},"properties":{"cartodb_id":97,"name":"Southern Reefs","latitude":10.483333,"longitude":116.7,"status":"Submerged","name_china":"Nanfang Qiantan, 南方浅滩","name_taiwan":"","name_vietnam":"Bãi Tây Nam","name_philippines":"Katimugan Banks","name_malaysia":"","date_of_occupation":"","occupier":"unoccupied","hyperlink":"","picture":""}},{"type":"Feature","geometry":{"type":"Point","coordinates":[117.283333,11.083333]},"properties":{"cartodb_id":99,"name":"Templer Bank","latitude":11.083333,"longitude":117.283333,"status":"Submerged","name_china":"Zhongxiao Tan, 忠孝滩","name_taiwan":"Zhongxiao Tan, 忠孝灘","name_vietnam":"Bãi Cạn Rạch Vang","name_philippines":"Dalag Bank","name_malaysia":"Permatang Dalag","date_of_occupation":"","occupier":"unoccupied","hyperlink":"","picture":""}},{"type":"Feature","geometry":{"type":"Point","coordinates":[114.510833,9.868611]},"properties":{"cartodb_id":100,"name":"Tetley Reef","latitude":9.868611,"longitude":114.510833,"status":"Low-tide elevation","name_china":"Bianshen Jiao, 扁参礁","name_taiwan":"","name_vietnam":"Đá Ninh Hòa","name_philippines":"","name_malaysia":"","date_of_occupation":"","occupier":"unoccupied","hyperlink":"","picture":""}},{"type":"Feature","geometry":{"type":"Point","coordinates":[114.375,11.091667]},"properties":{"cartodb_id":101,"name":"Tiezhi Reef","latitude":11.091667,"longitude":114.375,"status":"Low-tide elevation","name_china":"Tiezhi Jiao, 铁峙礁","name_taiwan":"","name_vietnam":"","name_philippines":"","name_malaysia":"","date_of_occupation":"","occupier":"unoccupied","hyperlink":"","picture":""}},{"type":"Feature","geometry":{"type":"Point","coordinates":[114.675,11.45]},"properties":{"cartodb_id":102,"name":"Trident Shoal","latitude":11.45,"longitude":114.675,"status":"Submerged","name_china":"Yongdeng Ansha, 永登暗沙","name_taiwan":"Yongdeng Ansha, 永登暗沙","name_vietnam":"Bãi Đinh Ba (V), Tatlong-tulis Shoal","name_philippines":"","name_malaysia":"","date_of_occupation":"","occupier":"unoccupied","hyperlink":"","picture":""}},{"type":"Feature","geometry":{"type":"Point","coordinates":[113.638889,10.233333]},"properties":{"cartodb_id":104,"name":"Western Reef","latitude":10.233333,"longitude":113.638889,"status":"Submerged","name_china":"Fulusi Jiao,  福禄寺礁","name_taiwan":"Fulusi Jiao, 福祿寺礁","name_vietnam":"Đá Đền Cây Cỏ (V)","name_philippines":"Gomez Reef","name_malaysia":"","date_of_occupation":"","occupier":"unoccupied","hyperlink":"","picture":""}},{"type":"Feature","geometry":{"type":"Point","coordinates":[114.6625,10]},"properties":{"cartodb_id":105,"name":"Whitsun Reef","latitude":10,"longitude":114.6625,"status":"Rock","name_china":"Niu’e Jio, 牛轭礁","name_taiwan":"","name_vietnam":"Đá Ba Đầu","name_philippines":"Juan Felipe Reef","name_malaysia":"","date_of_occupation":"","occupier":"unoccupied","hyperlink":"","picture":""}},{"type":"Feature","geometry":{"type":"Point","coordinates":[117.15,10.625]},"properties":{"cartodb_id":106,"name":"Wood Bank","latitude":10.625,"longitude":117.15,"status":"Submerged","name_china":"Zi Tan, 紫滩","name_taiwan":"","name_vietnam":"Bãi Đồng Giữa","name_philippines":"Kahoy Bank","name_malaysia":"","date_of_occupation":"","occupier":"unoccupied","hyperlink":"","picture":""}},{"type":"Feature","geometry":{"type":"Point","coordinates":[114.413656,10.386083]},"properties":{"cartodb_id":107,"name":"Zhongzhou Reef","latitude":10.38608333,"longitude":114.4136556,"status":"Rock","name_china":"Zhongzhou Jiao, 中洲礁","name_taiwan":"Zhongzhou Jiao, 中洲礁","name_vietnam":"Bãi Bàn Than","name_philippines":"","name_malaysia":"","date_of_occupation":"","occupier":"unoccupied","hyperlink":"","picture":""}},{"type":"Feature","geometry":{"type":"Point","coordinates":[114.222778,7.754167]},"properties":{"cartodb_id":108,"name":"Ardasier Bank","latitude":7.7541667,"longitude":114.2227778,"status":"Submerged","name_china":"Andu Tan, 安渡滩","name_taiwan":"Andu Tan, 安渡灘","name_vietnam":"Bãi Kiêu Ngựa","name_philippines":"Antonio Luna Bank","name_malaysia":"Permatang Ubi","date_of_occupation":"","occupier":"unoccupied","hyperlink":"","picture":""}},{"type":"Feature","geometry":{"type":"Point","coordinates":[114.666667,9.716667]},"properties":{"cartodb_id":109,"name":"Fancy Wreck Shoal","latitude":9.716667,"longitude":114.666667,"status":"Submerged","name_china":"Fan'ai Ansha, 泛爱暗沙","name_taiwan":"Fan'ai Ansha, 汎愛暗沙","name_vietnam":"","name_philippines":"Dulong Shoal","name_malaysia":"","date_of_occupation":"","occupier":"unoccupied","hyperlink":"","picture":""}},{"type":"Feature","geometry":{"type":"Point","coordinates":[115.91,10.886111]},"properties":{"cartodb_id":110,"name":"Third Thomas Shoal","latitude":10.886111,"longitude":115.91,"status":"Submerged","name_china":"Heping Ansha, 和平暗沙","name_taiwan":"Heping Ansha, 和平暗沙","name_vietnam":"Bãi Đồng Cam","name_philippines":"","name_malaysia":"","date_of_occupation":"","occupier":"unoccupied","hyperlink":"","picture":""}},{"type":"Feature","geometry":{"type":"Point","coordinates":[111.716667,7.958333]},"properties":{"cartodb_id":111,"name":"Rifleman Bank/Bombay Castle","latitude":7.958333,"longitude":111.716667,"status":"Submerged","name_china":"Pengbobao Ansha, 蓬勃堡暗沙","name_taiwan":"Pengbobao, 蓬勃堡","name_vietnam":"Đá Ba Kè","name_philippines":"","name_malaysia":"","date_of_occupation":"","occupier":"unoccupied","hyperlink":"","picture":""}}]}